,Country,City,Lat,Lng,Temp F,Date,Humidity,Max Temp,Wind Speed,Cloudiness
0,RU,Severo-Kuril'sk,50.68,156.12,34.39,1587240637,88,34.39,10.07,9
1,RU,Dikson,73.51,80.55,35.24,1587240493,89,35.24,19.1,100
2,IT,Laas,46.62,10.7,55.4,1587240649,58,55.4,2.24,40
3,TO,Vaini,-21.2,-175.2,77.0,1587240488,83,77.0,10.29,40
4,NZ,Bluff,-46.6,168.33,43.0,1587240576,91,43.0,5.01,100
5,ZA,Hermanus,-34.42,19.23,68.0,1587240645,47,68.0,4.81,69
6,AU,Busselton,-33.65,115.33,61.02,1587240846,80,63.0,24.92,100
7,US,Havelock,34.88,-76.9,69.13,1587240727,56,71.01,20.8,75
8,NZ,Mataura,-46.19,168.86,43.0,1587240965,91,43.0,4.0,100
9,CN,Zhicheng,30.3,111.5,53.53,1587240965,87,53.53,3.4,96
10,JP,Sakaiminato,35.55,133.23,53.6,1587240759,81,53.6,5.82,75
11,AU,Hobart,-42.88,147.33,43.45,1587240552,87,45.0,6.93,75
12,AU,Karratha,-20.74,116.85,82.06,1587240690,60,82.06,8.84,100
13,ZA,Port Elizabeth,-33.92,25.57,66.2,1587240965,93,66.2,4.7,0
14,KI,Butaritari,3.07,172.79,83.21,1587240658,77,83.21,15.82,76
15,CA,Aklavik,68.22,-135.01,22.17,1587240966,73,23.0,13.87,75
16,CL,Coquimbo,-29.95,-71.34,64.4,1587240631,72,64.4,10.29,40
17,GA,Port-Gentil,-0.72,8.78,84.2,1587240420,83,84.2,8.05,40
18,JP,Shimoda,34.67,138.95,50.0,1587240697,80,51.01,5.01,0
19,CA,Tuktoyaktuk,69.45,-133.04,8.6,1587240387,78,8.6,3.36,40
20,CA,Saint-Félicien,48.65,-72.45,44.6,1587240966,30,44.6,16.11,75
21,GL,Nanortalik,60.14,-45.24,29.5,1587240494,91,29.5,3.91,82
22,PF,Rikitea,-23.12,-134.97,77.09,1587240715,73,77.09,7.54,18
23,BR,Pilar do Sul,-23.81,-47.72,61.32,1587240967,74,61.32,8.14,58
24,GL,Upernavik,72.79,-56.15,24.46,1587240413,90,24.46,23.78,100
25,US,Albany,42.6,-73.97,42.51,1587240522,66,44.01,3.0,93
26,RU,Tilichiki,60.47,166.1,7.43,1587240967,90,7.43,10.0,0
27,AU,Whyalla,-33.03,137.58,50.0,1587240967,93,50.0,5.82,0
28,CA,Halifax,44.65,-63.57,38.23,1587240812,63,42.01,3.0,100
29,US,Bethel,41.37,-73.41,41.13,1587240671,80,43.0,9.17,90
30,AU,Port Hedland,-20.32,118.57,77.0,1587240968,100,77.0,5.82,99
31,PF,Atuona,-9.8,-139.03,82.47,1587240630,79,82.47,18.37,89
32,RU,Chokurdakh,70.63,147.92,-6.72,1587240662,88,-6.72,8.59,100
33,PT,Ribeira Grande,38.52,-28.7,62.6,1587240968,93,62.6,18.34,75
34,RE,Saint-Philippe,-21.36,55.77,70.18,1587240624,78,77.0,17.22,20
35,US,Jamestown,42.1,-79.24,43.32,1587240537,48,44.01,13.87,75
36,SJ,Longyearbyen,78.22,15.64,30.2,1587240626,80,30.2,5.82,20
37,IN,Kavaratti,10.57,72.64,84.13,1587240444,71,84.13,4.56,1
38,MU,Bambous Virieux,-20.34,57.76,78.42,1587240969,78,78.8,11.41,40
39,VU,Isangel,-19.55,169.27,79.59,1587240651,81,79.59,10.49,85
40,US,Saint Andrews,34.05,-81.13,76.78,1587240969,34,78.8,11.41,40
41,US,Kapaa,22.08,-159.32,77.14,1587240718,65,78.8,11.41,1
42,IN,Rāzole,16.48,81.83,78.35,1587240969,91,78.35,3.74,7
43,AU,New Norfolk,-42.78,147.06,41.7,1587240970,87,42.01,2.44,60
44,CD,Lubumbashi,-11.66,27.48,62.85,1587240970,66,62.85,5.32,11
45,PK,Turbat,26.0,63.04,79.48,1587240970,54,79.48,7.27,59
46,AR,Ushuaia,-54.8,-68.3,50.0,1587240622,69,50.0,18.34,75
47,RU,Alekseyevskoye,55.31,50.11,35.6,1587240970,80,35.6,6.71,25
48,MN,Bulgan,48.81,103.53,28.27,1587240970,58,28.27,3.74,3
49,RU,Lavrentiya,65.58,-171.0,18.59,1587240633,95,18.59,9.57,100
50,CO,Becerril,9.7,-73.28,94.96,1587240971,34,94.96,3.18,24
51,RU,Srednekolymsk,67.45,153.68,-5.55,1587240664,90,-5.55,9.55,77
52,PA,Colón,9.36,-79.9,90.07,1587240971,62,91.0,14.99,40
53,PT,Ponta do Sol,32.67,-17.1,57.52,1587240971,58,60.01,5.01,11
54,BW,Sefophe,-22.18,27.97,67.42,1587240971,60,67.42,10.67,0
55,JP,Nishihara,26.18,127.76,70.57,1587240622,94,71.6,5.82,1
56,US,Fortuna,40.6,-124.16,55.47,1587240666,81,57.99,3.36,75
57,US,Saint Paul Harbor,57.79,-152.41,46.4,1587240392,75,46.4,8.05,1
58,ZA,Bredasdorp,-34.53,20.04,57.2,1587240630,87,57.2,1.12,46
59,BR,Castro,-24.79,-50.01,61.27,1587240786,58,61.27,3.71,43
60,GL,Ilulissat,69.22,-51.1,24.8,1587240636,79,24.8,3.36,100
61,BR,Aracruz,-19.82,-40.27,77.0,1587240684,69,77.0,13.87,20
62,SL,Bonthe,7.53,-12.51,80.2,1587240972,78,80.2,7.58,75
63,RU,Yar-Sale,66.83,70.83,34.52,1587240701,98,34.52,9.15,99
64,NA,Oranjemund,-28.55,16.43,58.51,1587240973,82,58.51,3.67,10
65,ID,Padang,-0.95,100.35,78.28,1587240456,77,78.28,1.59,95
66,SO,Bandarbeyla,9.49,50.81,81.25,1587240645,73,81.25,9.13,50
67,FI,Keuruu,62.27,24.7,36.88,1587240670,64,37.4,8.05,82
68,US,Saint George,37.1,-113.58,68.52,1587240849,30,69.01,11.41,20
69,BR,São Miguel do Araguaia,-13.28,-50.16,74.57,1587240973,86,74.57,2.33,100
70,MU,Mahébourg,-20.41,57.7,78.49,1587240664,78,78.8,11.41,40
71,JP,Nemuro,43.32,145.57,40.14,1587240429,79,40.14,9.24,100
72,MX,Coahuayana Viejo,18.73,-103.68,86.0,1587240969,40,86.0,7.96,40
73,CA,Terrace Bay,48.78,-87.1,37.4,1587240974,86,37.4,6.93,90
74,GL,Qaanaaq,77.48,-69.36,20.75,1587240634,87,20.75,9.42,100
75,AR,Mar del Plata,-38.0,-57.56,74.57,1587240717,50,75.2,16.11,1
76,UY,Chui,-33.7,-53.46,66.63,1587240657,82,66.63,7.23,18
77,CK,Avarua,-21.21,-159.78,80.6,1587240642,74,80.6,5.82,54
78,SE,Skellefteå,64.75,20.95,33.3,1587240975,69,33.8,2.24,4
79,AU,Charlestown,-32.95,151.67,48.97,1587240793,90,53.01,3.8,10
80,RU,Yershov,51.35,48.28,39.42,1587240975,85,39.42,8.97,0
81,CA,Goderich,43.75,-81.72,53.01,1587240975,49,53.01,1.99,46
82,RU,Batagay-Alyta,67.8,130.41,-3.82,1587240976,67,-3.82,3.53,0
83,MY,George Town,5.41,100.34,81.16,1587240638,88,82.4,3.36,40
84,RU,Chernyshevskiy,63.01,112.47,5.31,1587240976,91,5.31,4.92,56
85,ID,Bengkulu,-3.8,102.27,76.73,1587240491,85,76.73,4.03,100
86,SB,Kirakira,-10.45,161.92,78.71,1587240976,80,78.71,4.29,100
87,US,Charter Township of Clinton,42.59,-82.92,53.56,1587240976,46,54.0,14.99,40
88,RU,Beringovskiy,63.05,179.32,19.74,1587240654,96,19.74,17.29,100
89,RU,Leningradskiy,69.38,178.42,2.21,1587240641,88,2.21,7.49,6
90,RU,Poronaysk,49.22,143.12,31.44,1587240977,96,31.44,5.12,88
91,BR,Nobres,-14.72,-56.33,75.09,1587240977,82,75.09,2.82,99
92,MG,Mahajanga,-15.72,46.32,84.2,1587240784,58,84.2,8.05,75
93,CA,Port-Cartier,50.03,-66.87,33.8,1587240977,69,33.8,11.41,75
94,TZ,Inyonga,-6.72,32.07,66.6,1587240977,67,66.6,4.41,100
95,ML,Taoudenni,22.68,-3.98,81.43,1587240636,43,81.43,24.67,14
96,SL,Mattru,7.62,-11.83,78.44,1587240978,78,78.44,5.28,79
97,US,Barrow,71.29,-156.79,-2.2,1587240378,77,-2.2,10.29,1
98,US,Weymouth,42.22,-70.94,38.77,1587240769,86,39.99,12.75,90
99,AU,Alice Springs,-23.7,133.88,60.8,1587240757,51,60.8,5.82,20
100,ID,Payakumbuh,-0.22,100.63,70.03,1587240979,80,70.03,1.54,89
101,CN,Huaicheng,23.91,112.19,72.16,1587240979,85,72.16,1.3,90
102,SE,Östersund,63.18,14.64,36.05,1587240768,83,37.0,14.99,0
103,RU,Kropotkin,45.44,40.58,50.67,1587240979,70,50.67,3.58,99
104,IS,Olafsvik,64.89,-23.71,34.56,1587240642,88,34.56,2.62,100
105,CL,Punta Arenas,-53.15,-70.92,55.2,1587240720,43,55.4,17.22,75
106,CA,Yellowknife,62.46,-114.35,23.27,1587240610,79,24.01,11.41,90
107,NZ,Waipawa,-41.41,175.52,59.25,1587240979,63,60.8,20.8,0
108,ZA,Port Alfred,-33.59,26.89,64.99,1587240717,95,64.99,4.0,0
109,GN,Siguiri,11.67,-9.5,93.74,1587240980,18,93.74,4.63,100
110,MG,Manakara,-22.13,48.02,73.83,1587240980,86,73.83,5.39,29
111,CO,El Bagre,7.59,-74.81,82.45,1587240980,81,82.45,2.77,95
112,LR,Harper,4.38,-7.72,80.46,1587240757,84,80.46,8.28,100
113,RO,Asău,46.43,26.4,49.44,1587240647,53,50.0,5.82,22
114,CO,Puerto Colombia,10.99,-74.95,93.2,1587240981,52,93.2,10.29,20
115,GL,Narsaq,60.92,-46.05,32.0,1587240978,92,32.0,10.29,88
116,MV,Hithadhoo,-0.6,73.08,83.77,1587240635,75,83.77,11.65,99
117,PH,Pandan,14.05,124.17,81.27,1587240981,79,81.27,11.92,69
118,EC,Puerto Ayora,-0.74,-90.35,84.11,1587240890,70,86.0,13.87,75
119,PE,Talara,-4.58,-81.27,86.0,1587240981,51,86.0,11.41,31
120,PG,Samarai,-10.62,150.67,80.65,1587240701,80,80.65,1.41,99
121,LY,Jalu,29.03,21.55,68.88,1587240415,28,68.88,5.12,0
122,PG,Kieta,-6.22,155.63,81.03,1587240982,75,81.03,1.45,92
123,NO,Vardø,70.37,31.11,36.14,1587240606,82,36.14,19.93,91
124,SO,Bosaso,11.28,49.18,83.98,1587240982,72,83.98,3.58,41
125,RU,Sobolevo,54.43,31.9,35.92,1587240982,79,35.92,6.89,99
126,BR,Pilar,-9.6,-35.96,82.4,1587240983,83,82.4,12.75,75
127,EG,Marsá Maţrūḩ,31.35,27.25,60.8,1587240977,77,60.8,6.22,20
128,NO,Finnsnes,69.23,17.98,37.18,1587240983,93,37.4,20.8,98
129,SY,Salamiyah,35.01,37.05,63.97,1587240983,53,63.97,3.94,1
130,ID,Ambon City,-3.7,128.18,82.69,1587240983,73,82.69,2.75,70
131,RU,Saskylakh,71.92,114.08,8.49,1587240518,79,8.49,5.37,0
132,US,Russell,32.35,-85.2,78.44,1587240984,42,80.6,10.29,1
133,CN,Korla,41.76,86.15,59.32,1587240966,37,59.32,9.98,99
134,US,Hilo,19.73,-155.09,77.79,1587240360,44,80.6,3.36,1
135,CA,Thompson,55.74,-97.86,14.0,1587240357,51,14.0,11.41,40
136,AW,Oranjestad,12.52,-70.03,86.0,1587240984,62,86.0,19.46,40
137,NZ,Kaitangata,-46.28,169.85,43.99,1587240627,89,48.99,7.63,100
138,NG,Yaan,7.38,8.57,84.72,1587240985,60,84.72,7.78,78
139,BJ,Porto-Novo,6.5,2.6,84.2,1587240985,83,84.2,11.41,40
140,PG,Kokopo,-4.35,152.26,79.36,1587240604,78,79.36,3.58,84
141,CA,Clyde River,70.47,-68.59,15.8,1587240985,85,15.8,5.82,75
142,TZ,Kirando,-7.42,30.6,75.18,1587240985,61,75.18,6.51,93
143,CN,Ürümqi,43.8,87.6,57.2,1587240986,54,57.2,6.71,94
144,MM,Yamethin,20.43,96.15,75.96,1587240986,40,75.96,6.35,0
145,CA,Iqaluit,63.75,-68.51,6.39,1587240563,65,6.8,2.24,20
146,BR,Arraial do Cabo,-22.97,-42.03,75.2,1587240825,78,75.2,9.17,20
147,US,Sitka,57.05,-135.33,44.04,1587240641,87,44.6,4.32,40
148,ID,Sibolga,1.74,98.78,77.31,1587240610,80,77.31,2.73,100
149,CA,Chapais,49.78,-74.85,39.2,1587240987,32,39.2,21.92,1
150,CN,Kashgar,39.45,75.98,53.6,1587240671,66,53.6,4.47,100
151,RU,Ola,59.58,151.28,8.49,1587240987,85,8.49,13.53,100
152,ZA,East London,-33.02,27.91,71.22,1587240910,66,71.22,17.54,0
153,KZ,Zaysan,47.47,84.87,52.09,1587240987,40,52.09,3.24,98
154,CL,Ancud,-41.87,-73.82,59.0,1587240508,82,59.0,17.22,75
155,CL,Lebu,-37.62,-73.65,61.65,1587240634,72,61.65,5.7,34
156,NZ,Ahipara,-35.17,173.17,65.62,1587240643,82,65.62,8.28,87
157,TO,Neiafu,-18.65,-173.98,77.0,1587240988,94,77.0,6.93,75
158,MX,Ixtapa,20.7,-105.2,78.8,1587240988,69,78.8,13.87,90
159,ID,Sampit,-2.53,112.95,74.26,1587240988,98,74.26,2.06,100
160,BR,Tucumã,-0.18,-50.05,79.86,1587240988,83,79.86,2.91,100
161,CL,Constitución,-35.33,-72.42,65.19,1587240505,83,65.19,9.69,83
162,MU,Grand Gaube,-20.01,57.66,78.31,1587240988,78,78.8,11.41,40
163,ZA,Kruisfontein,-34.0,24.73,65.19,1587240652,43,65.19,6.08,0
164,AE,Abu Dhabi,24.47,54.37,75.87,1587240773,78,77.0,9.17,0
165,NZ,Christchurch,-43.53,172.63,49.32,1587240989,70,51.01,8.05,1
166,PT,Praia da Vitória,38.73,-27.07,64.4,1587240989,88,64.4,17.31,40
167,BR,Itarema,-2.92,-39.92,79.18,1587240427,81,79.18,3.91,33
168,ES,Muros,42.78,-9.06,51.46,1587240609,83,57.99,3.0,24
169,ZA,Cape Town,-33.93,18.42,64.38,1587240832,77,66.99,4.7,91
170,MX,Mapimí,25.82,-103.85,91.72,1587240990,18,91.99,2.24,75
171,BR,Tutóia,-2.76,-42.27,86.0,1587240990,74,86.0,6.93,40
172,CN,Mujiayingzi,42.12,118.78,48.6,1587240442,40,48.6,5.93,100
173,BJ,Djougou,9.71,1.67,82.83,1587240990,54,82.83,6.78,97
174,CN,Longhua,23.61,114.19,69.19,1587240990,85,69.19,1.21,76
175,ET,Gewanē,10.17,40.65,71.06,1587240991,73,71.06,21.3,100
176,TL,Airai,-8.93,125.41,59.76,1587240488,56,59.76,2.86,44
177,CN,Xiongyue,40.18,122.12,52.03,1587240991,54,52.03,1.99,100
178,US,Portland,45.52,-122.68,50.43,1587240515,76,52.0,11.41,90
179,US,Palm Coast,29.59,-81.21,81.81,1587240973,69,84.0,10.29,75
180,CA,Haines Junction,60.75,-137.51,47.34,1587240991,44,47.34,2.1,12
181,MD,Fălești,47.57,27.71,51.96,1587240991,30,54.0,3.0,61
182,VG,Road Town,18.42,-64.62,84.78,1587240703,62,86.0,9.17,40
183,AU,Yulara,-25.24,130.99,66.2,1587240684,45,66.2,6.93,32
184,BR,São João da Barra,-21.64,-41.05,77.0,1587240992,65,77.0,18.34,20
185,AU,Bowen,-20.02,148.23,71.2,1587240755,94,73.0,2.86,40
186,PG,Lorengau,-2.02,147.27,82.47,1587240992,74,82.47,3.04,3
187,ET,Bonga,7.28,36.23,62.89,1587240992,49,62.89,2.15,88
188,CV,Vila do Maio,15.13,-23.22,73.4,1587240992,60,73.4,20.8,40
189,KH,Sisophon,13.59,102.97,80.69,1587240993,75,80.69,4.61,21
190,IN,Dīdwāna,27.4,74.57,79.95,1587240994,32,79.95,6.33,90
191,JP,Katsuura,35.13,140.3,55.92,1587240692,72,57.99,1.99,9
192,SN,Oussouye,12.48,-16.55,78.84,1587240994,58,82.4,6.93,29
193,RU,Nikolskoye,59.7,30.79,36.1,1587240382,91,37.4,13.42,90
194,KE,Namanga,-2.54,36.79,64.45,1587240994,58,64.45,12.75,100
195,BR,São José da Coroa Grande,-8.9,-35.15,82.0,1587240994,78,82.0,8.9,95
196,BR,Cidreira,-30.18,-50.21,68.59,1587240421,78,68.59,11.72,0
197,EC,Gualaceo,-2.9,-78.78,57.2,1587240995,100,57.2,3.36,75
198,PK,Gujranwala,32.16,74.19,68.0,1587240995,77,68.0,5.82,0
199,RU,Miass,55.05,60.11,33.71,1587240995,77,33.71,5.7,85
200,IN,Dwārka,22.24,68.97,80.35,1587240995,81,80.35,13.73,33
201,IN,Valpoi,15.53,74.14,77.47,1587240995,85,77.47,0.45,13
202,HK,Hong Kong,22.29,114.16,71.85,1587240578,88,75.0,8.01,33
203,ES,Santa Lucía,27.91,-15.54,64.8,1587240996,63,66.0,17.22,20
204,RU,Nachalovo,46.34,48.2,50.0,1587240996,52,50.0,2.24,99
205,ID,Bima,-8.47,118.72,77.16,1587240996,82,77.16,1.19,39
206,US,Kahului,20.89,-156.47,76.01,1587240896,50,77.0,3.36,20
207,PY,Benjamín Aceval,-24.97,-57.57,86.0,1587240996,28,86.0,5.82,0
208,US,Morgan City,29.7,-91.21,72.97,1587240996,88,73.4,8.05,90
209,RU,Tiksi,71.69,128.87,3.87,1587240659,85,3.87,4.38,55
210,AU,Rockhampton,-23.38,150.5,73.4,1587240660,88,73.4,8.05,90
211,MX,Pochutla,15.74,-96.47,90.43,1587240997,52,91.99,11.41,20
212,GB,Kent,51.17,0.67,47.8,1587240997,89,48.99,7.9,42
213,FR,Villefontaine,45.61,5.15,61.23,1587240997,72,62.6,5.82,98
214,RU,Khatanga,71.97,102.5,9.54,1587240353,93,9.54,5.06,0
215,BR,Touros,-5.2,-35.46,86.0,1587240630,70,86.0,10.29,40
216,BR,Caçu,-18.56,-51.13,73.49,1587240997,77,73.49,4.29,92
217,RU,Rostovka,55.38,71.89,51.31,1587240997,63,51.31,5.32,100
218,GB,Bridlington,54.08,-0.19,41.76,1587240998,93,44.6,4.7,64
219,CA,Senneterre,48.38,-77.23,44.6,1587240998,36,44.6,18.34,75
220,JP,Nisshin,35.17,136.96,54.52,1587240998,79,55.0,1.01,66
221,US,Laguna,38.42,-121.42,65.26,1587240745,52,66.99,8.05,1
222,PT,Peniche,39.36,-9.38,58.53,1587240998,83,59.0,1.99,1
223,UZ,Samarkand,39.65,66.96,60.8,1587240998,59,60.8,6.93,40
224,SO,Hobyo,5.35,48.53,84.65,1587240625,72,84.65,10.94,90
225,NZ,Dunedin,-45.87,170.5,48.09,1587240542,68,48.99,7.94,100
226,VE,San Cristobal,7.77,-72.22,87.8,1587240766,45,87.8,10.29,40
227,US,Terre Haute,39.47,-87.41,55.69,1587240993,37,55.99,6.93,1
228,CA,Shelburne,44.08,-80.2,48.47,1587240918,53,50.0,4.0,73
229,FO,Vágur,61.47,-6.81,44.98,1587240665,82,44.98,14.27,0
230,CN,Zhangjiakou,40.81,114.88,48.9,1587240999,51,48.9,3.89,100
231,IN,Baihar,22.1,80.55,77.67,1587240999,30,77.67,2.66,64
232,CA,Rosetown,51.55,-108.0,37.78,1587240999,58,39.99,20.0,40
233,GH,Mumford,5.26,-0.76,81.86,1587240773,82,81.86,10.58,43
234,NA,Opuwo,-18.06,13.84,72.64,1587240903,38,72.64,4.47,89
235,PG,Kavieng,-2.57,150.8,81.88,1587240676,78,81.88,4.0,92
236,TR,Yüksekova,37.57,44.29,55.4,1587241000,47,55.4,6.93,20
237,FR,Arrondissement de Saint-Denis,48.92,2.33,60.28,1587240896,82,62.01,3.36,44
238,BW,Dekar,-21.53,21.93,73.74,1587241000,33,73.74,7.34,51
239,RU,Ust-Nera,64.57,143.2,-5.91,1587240933,77,-5.91,6.15,99
240,PE,Llata,-9.42,-76.78,53.49,1587241000,28,53.49,6.73,92
241,GN,Mandiana,10.63,-8.68,91.53,1587241001,25,91.53,4.07,70
242,UY,Delta del Tigre,-34.76,-56.39,76.17,1587241001,47,77.0,11.41,0
243,BR,Pio XII,-3.83,-45.15,77.58,1587241001,93,77.58,1.86,100
244,NZ,Manaia,-39.55,174.13,57.67,1587241001,88,57.99,13.96,13
245,CN,Xingyi,24.19,102.82,55.72,1587241002,43,55.72,3.04,0
246,CN,Hefei,31.86,117.28,53.6,1587241002,100,53.6,6.71,90
247,US,Kailua,21.4,-157.74,79.32,1587240721,51,82.4,11.41,20
248,AU,Port Keats,-14.25,129.55,82.78,1587241002,81,82.78,6.82,33
249,EC,Manta,-0.95,-80.73,77.0,1587241002,88,77.0,2.24,85
250,AU,Mount Gambier,-37.83,140.77,46.4,1587241002,93,46.4,5.82,90
251,PE,Pisco,-13.7,-76.22,75.11,1587240600,64,75.2,6.93,21
252,MX,Nautla,20.22,-96.78,85.23,1587241002,72,85.23,6.06,47
253,CY,Nicosia,35.17,33.37,63.99,1587240790,77,68.0,12.75,97
254,MU,Souillac,-20.52,57.52,78.44,1587240882,78,78.8,11.41,40
255,ID,Pemangkat,1.17,108.97,75.24,1587241003,86,75.24,6.24,100
256,CA,Saint-Augustin,51.23,-58.65,28.76,1587240643,89,28.76,16.08,56
257,PL,Ozorków,51.96,19.29,47.26,1587241003,43,48.99,5.3,100
258,BR,Alto Piquiri,-24.03,-53.44,68.95,1587241004,60,68.95,2.51,37
259,RU,De-Kastri,51.47,140.78,27.3,1587240691,94,27.3,9.75,99
260,AU,Carnarvon,-24.87,113.63,73.4,1587240675,88,73.4,16.11,40
261,GA,Mayumba,-3.43,10.66,80.04,1587241004,83,80.04,0.98,78
262,AR,Tandil,-37.32,-59.13,65.86,1587241004,61,65.86,9.95,0
263,MX,San Blas,21.52,-105.27,87.8,1587241004,38,87.8,9.17,75
264,MG,Miandrivazo,-19.52,45.47,78.33,1587241004,67,78.33,0.63,53
265,PF,Tiarei,-17.53,-149.33,86.0,1587240636,66,86.0,9.17,75
266,RU,Verkhnevilyuysk,63.45,120.32,4.33,1587241004,93,4.33,4.72,57
267,BS,Andros Town,24.7,-77.77,86.0,1587241005,66,86.0,12.75,20
268,SA,Umluj,25.02,37.27,73.78,1587241005,49,73.78,4.81,100
269,CN,Yumen,40.28,97.2,51.57,1587240624,24,51.57,11.27,93
270,RU,Kharovsk,59.96,40.19,30.42,1587241005,97,30.42,3.74,99
271,CA,Torbay,47.67,-52.73,38.19,1587240636,47,39.99,19.46,75
272,CN,Weinan,34.5,109.51,46.4,1587241005,93,46.4,4.47,5
273,RU,Pevek,69.7,170.31,-0.81,1587240680,91,-0.81,7.34,29
274,RU,Tyazhinskiy,56.12,88.52,39.65,1587241006,70,39.65,12.57,4
275,CF,Birao,10.28,22.79,82.15,1587241006,12,82.15,2.82,82
276,AO,Mossamedes,-15.2,12.15,74.34,1587240667,71,74.34,4.61,78
277,LY,Sabha,27.04,14.43,79.81,1587240599,20,79.81,14.85,0
278,AU,Dalby,-27.18,151.27,55.24,1587241006,100,55.99,3.36,75
279,MV,Thinadhoo,0.53,72.93,83.91,1587241007,76,83.91,13.29,100
280,PE,Chicama,-7.84,-79.15,71.6,1587241007,78,71.6,13.87,40
281,BR,Niterói,-22.88,-43.1,75.7,1587241007,73,77.0,9.17,40
282,KZ,Sarkand,45.41,79.92,48.06,1587240648,36,48.06,5.06,0
283,CV,São Filipe,14.9,-24.5,71.69,1587240739,73,71.69,21.59,14
284,IN,Safidon,29.42,76.67,74.14,1587241007,42,74.14,4.99,11
285,CI,Tabou,4.42,-7.35,79.79,1587240626,87,79.79,7.99,100
286,US,Carbondale,37.73,-89.22,56.66,1587240585,48,59.0,10.29,1
287,PT,Lagoa,39.05,-27.98,62.29,1587240668,91,62.29,23.26,100
288,PW,Kloulklubed,7.04,134.26,80.6,1587240956,88,80.6,8.05,75
289,US,Kearney,40.7,-99.08,68.27,1587241008,24,71.6,10.29,1
290,MX,Ciudad Valles,21.98,-99.02,97.92,1587241008,36,97.92,7.09,93
291,US,Estelle,29.85,-90.11,73.74,1587241008,88,75.2,4.7,90
292,FR,Hauterive,46.09,3.45,59.56,1587241008,67,60.8,2.24,72
293,CI,Bangolo,7.01,-7.47,74.89,1587241009,88,74.89,3.47,90
294,BR,Padre Bernardo,-15.35,-48.5,72.59,1587241009,74,72.59,1.07,100
295,FO,Klaksvík,62.23,-6.59,42.8,1587240366,81,42.8,13.87,0
296,CN,Kumul,42.8,93.45,62.38,1587240487,21,62.38,11.95,100
297,CN,Qiyang,26.59,111.85,61.56,1587241009,91,61.56,4.14,100
298,MG,Ambilobe,-13.2,49.05,73.45,1587241009,82,73.45,5.32,47
299,RU,Baymak,52.59,58.32,34.43,1587241010,78,34.43,5.35,63
300,BR,Rio Brilhante,-21.8,-54.55,74.77,1587241010,56,74.77,4.29,13
301,IN,Bela,25.93,81.98,86.7,1587241010,21,86.7,4.05,43
302,NA,Lüderitz,-26.65,15.16,60.8,1587240640,87,60.8,6.93,7
303,EG,Assiut,27.18,31.18,71.6,1587240919,43,71.6,17.22,0
304,MN,Mandalgovi,45.76,106.27,30.7,1587241010,50,30.7,29.55,100
305,AU,Sydney,-33.87,151.21,54.75,1587240779,87,57.99,8.05,20
306,AU,Codrington,-38.27,141.97,50.97,1587240666,84,50.97,8.48,72
307,MY,George Town,5.41,100.34,81.16,1587241011,88,82.4,3.36,40
308,PG,Vanimo,-2.67,141.3,80.37,1587240625,80,80.37,4.59,100
309,PF,Tautira,-17.73,-149.15,84.96,1587241011,66,86.0,9.17,78
310,RU,Mil'kovo,54.72,158.62,35.11,1587241011,71,35.11,5.32,8
311,PF,Fare,-16.7,-151.02,83.89,1587241011,73,83.89,11.65,15
312,MX,San Patricio,19.22,-104.7,82.4,1587241011,78,82.4,11.41,20
313,US,Mayo,38.89,-76.51,52.3,1587240706,53,54.0,24.16,75
314,IN,Visakhapatnam,17.69,83.21,84.2,1587240757,79,84.2,4.7,75
315,US,Healdsburg,38.61,-122.87,58.73,1587240826,62,61.0,6.93,90
316,TM,Murgab,37.5,61.97,64.4,1587241012,63,64.4,2.15,75
317,CF,Zemio,5.03,25.14,75.13,1587241012,57,75.13,2.82,99
318,IN,Sarwār,26.07,75.0,81.45,1587241012,29,81.45,8.48,97
319,ES,Mazarrón,37.6,-1.31,60.01,1587241013,92,60.01,1.99,100
320,RU,Chumikan,54.72,135.31,21.51,1587241013,90,21.51,9.04,100
321,NE,Arlit,18.74,7.39,88.29,1587241013,10,88.29,3.22,0
322,TZ,Malangali,-8.57,34.85,64.0,1587241013,56,64.0,9.71,100
323,MA,Salé,34.04,-6.82,63.64,1587241013,82,64.99,12.75,75
324,US,College,64.86,-147.8,40.01,1587240675,93,42.01,2.21,90
325,PY,Itakyry,-24.93,-55.22,73.24,1587241013,58,73.24,3.87,0
326,MX,Castaños,26.78,-101.42,90.0,1587241013,32,90.0,5.01,23
327,NU,Alofi,-19.06,-169.92,78.8,1587240637,88,78.8,10.29,32
328,JP,Muroto-misakicho,33.28,134.15,55.47,1587241014,67,55.47,9.57,33
329,TH,Kathu,7.92,98.33,75.2,1587241014,100,75.2,2.24,20
330,AR,Rivadavia,-33.19,-68.46,82.4,1587240736,32,82.4,6.93,0
331,IN,Puri,19.8,85.85,75.2,1587240784,78,75.2,14.7,75
332,GT,Champerico,14.3,-91.92,95.0,1587240652,36,95.0,6.93,40
333,AZ,Ucar,40.52,47.65,53.6,1587241014,87,53.6,6.93,95
334,RU,Provideniya,64.38,-173.3,22.05,1587240425,95,22.05,14.54,100
335,KZ,Chu,43.6,73.76,50.56,1587241015,40,50.56,3.53,0
336,TC,Cockburn Town,21.46,-71.14,79.05,1587240748,78,79.05,12.91,66
337,RU,Marfino,55.7,37.38,35.6,1587241015,80,35.6,8.95,84
338,US,Roswell,34.02,-84.36,65.91,1587241015,32,68.0,11.41,20
339,IN,Dwārāhāt,29.78,79.43,56.86,1587241015,38,56.86,4.59,3
340,SY,Jablah,35.36,35.93,60.8,1587241015,44,60.8,5.82,16
341,NP,Jumla,29.27,82.18,44.67,1587241015,29,44.67,3.15,16
342,IN,Kannauj,27.05,79.92,82.33,1587241016,22,82.33,5.32,49
343,RU,Cherskiy,68.75,161.3,2.01,1587240522,87,2.01,6.58,42
344,MZ,Quelimane,-17.88,36.89,77.0,1587241016,94,77.0,9.17,75
345,US,Fredericksburg,38.3,-77.46,54.81,1587240978,47,55.4,11.41,40
346,CV,Mindelo,16.89,-24.98,73.4,1587241017,64,73.4,24.16,40
347,AR,Viedma,-40.81,-63.0,80.94,1587240850,29,80.94,21.27,97
348,RU,Tegul'det,57.31,88.17,37.69,1587241017,82,37.69,8.55,2
349,RU,Klyuchevskiy,53.53,119.45,14.97,1587241017,87,14.97,9.01,97
350,RE,Saint-Pierre,-21.34,55.48,71.42,1587240643,78,77.0,17.22,20
351,RU,Domna,51.9,113.16,24.8,1587241017,62,24.8,11.18,40
352,NO,Havøysund,71.0,24.66,37.4,1587241018,100,37.4,19.46,100
353,US,Rock Springs,41.59,-109.2,48.2,1587241018,29,48.2,10.29,1
354,IN,Tura,25.52,90.22,66.11,1587240683,75,66.11,2.73,10
355,RU,Pangody,65.85,74.49,36.19,1587240667,96,36.19,13.13,100
356,IN,Port Blair,11.67,92.75,83.44,1587241018,73,83.44,4.43,29
357,PH,Alugan,12.22,125.48,81.27,1587241018,78,81.27,14.52,23
358,CA,Antigonish,45.62,-62.0,39.56,1587241018,47,41.0,7.0,88
359,US,Arcata,40.87,-124.08,54.37,1587240921,76,55.99,5.82,90
360,IN,Bilkha,21.43,70.6,81.37,1587241018,38,81.37,4.74,9
361,RU,Uyemskiy,64.47,40.85,35.6,1587241019,80,35.6,4.47,40
362,PG,Kiunga,-6.12,141.29,74.59,1587241019,97,74.59,1.54,100
363,PL,Ostrołęka,53.09,21.58,33.8,1587241019,59,37.0,5.93,51
364,MX,Guerrero Negro,27.98,-114.06,66.88,1587240929,54,66.88,20.78,0
365,FI,Uusikaupunki,60.8,21.41,39.2,1587241019,55,39.2,8.05,0
366,RU,Talnakh,69.49,88.4,37.4,1587240635,74,37.4,33.55,100
367,AU,Port Lincoln,-34.73,135.87,58.19,1587240918,75,58.19,8.25,33
368,CA,Norman Wells,65.28,-126.83,39.2,1587241019,93,39.2,16.11,90
369,BR,Tucuruí,-3.77,-49.67,80.33,1587241020,80,80.33,2.04,93
370,CN,Hailar,49.2,119.7,32.2,1587241020,67,32.2,18.16,100
371,PT,Ponta Delgada,37.73,-25.67,62.6,1587241020,88,62.6,13.87,40
372,BR,Rio Grande,-32.03,-52.1,73.9,1587241020,57,77.0,16.11,20
373,CA,Kapuskasing,49.42,-82.43,44.6,1587241020,45,44.6,33.33,90
374,KZ,Kentau,43.52,68.51,60.76,1587241021,27,60.76,12.37,0
375,ID,Nabire,-3.37,135.48,76.96,1587241021,87,76.96,3.98,100
376,AU,Broken Hill,-31.95,141.43,50.0,1587241021,57,50.0,4.7,40
377,CN,Yichun,47.7,128.9,45.41,1587241021,46,45.41,5.41,100
378,PE,Sechura,-5.56,-80.82,78.21,1587240633,64,78.21,10.09,0
379,GM,Nioro,13.35,-15.75,82.18,1587241021,27,82.18,10.11,74
380,JP,Izumo,35.37,132.77,53.6,1587241022,81,53.6,5.82,75
381,RU,Krasnosel'kup,65.7,82.47,37.29,1587240695,85,37.29,21.0,100
382,IN,Māngrol,21.12,70.12,80.4,1587240638,66,80.4,10.94,4
383,UZ,Yangi Marg`ilon,40.43,71.72,59.0,1587240645,54,59.0,6.93,4
384,IS,Husavik,66.04,-17.34,46.4,1587240578,75,46.4,44.96,90
385,TN,Rafrāf,37.19,10.18,65.3,1587241022,88,68.0,9.17,75
386,TO,Pangai,-19.8,-174.35,79.68,1587240651,83,79.68,18.5,43
387,NZ,Waiuku,-37.25,174.75,63.25,1587240849,88,64.0,10.29,72
388,CA,Sioux Lookout,50.1,-91.92,40.64,1587240782,56,41.0,11.41,90
389,MX,Cabo San Lucas,22.89,-109.91,76.57,1587241023,56,79.0,19.46,5
390,US,Kenai,60.55,-151.26,41.52,1587240699,93,43.0,5.82,90
391,RU,Turukhansk,65.82,87.98,37.63,1587240688,79,37.63,15.48,100
392,US,Nānākuli,21.39,-158.15,75.09,1587240636,69,77.0,3.36,40
393,UA,Balky,47.38,34.94,46.0,1587241023,36,46.0,6.58,100
394,RU,Kommunisticheskiy,61.68,64.48,36.46,1587241023,90,36.46,8.86,96
395,JP,Hasaki,35.73,140.83,50.61,1587240626,93,52.0,4.7,75
396,CA,Bonavista,48.65,-53.11,37.99,1587240694,50,37.99,10.0,97
397,US,Fallon,39.47,-118.78,64.67,1587241024,25,64.99,6.93,1
398,PK,Diplo,24.47,69.58,79.38,1587241024,52,79.38,12.55,75
399,MY,Kota Bharu,6.13,102.24,82.2,1587241024,78,82.4,3.36,20
400,CN,Beibei,29.83,106.43,61.97,1587241024,93,63.0,6.71,90
401,RU,Pushkino,56.02,37.87,35.6,1587241024,93,35.6,8.95,69
402,RU,Boguchany,58.38,97.45,24.39,1587241025,93,24.39,4.07,0
403,AU,Armidale,-30.52,151.65,42.96,1587241025,55,42.96,3.83,1
404,US,Philadelphia,39.95,-75.16,47.48,1587240842,49,48.2,23.04,90
405,RU,Kalevala,65.2,31.17,31.68,1587241025,94,31.68,8.99,85
406,PT,Vila Franca do Campo,37.72,-25.43,62.6,1587241025,88,62.6,13.87,40
407,IS,Hofn,64.25,-15.21,45.36,1587241025,87,45.36,17.56,100
408,GB,Ayr,55.46,-4.63,46.0,1587241026,66,48.2,10.29,3
409,PH,Santa Rosa,14.31,121.11,82.0,1587241026,74,84.2,3.36,40
410,ES,Los Llanos de Aridane,28.66,-17.92,61.83,1587241026,68,66.2,20.8,20
411,ID,Bambanglipuro,-7.95,110.28,78.93,1587241026,80,78.93,5.17,98
412,MX,Ixtepec,16.58,-95.1,93.61,1587241026,45,93.61,11.72,11
413,NE,Tanout,14.97,8.89,83.8,1587241026,11,83.8,10.13,24
414,NG,Numan,9.47,12.03,91.58,1587241026,28,91.58,4.97,100
415,SE,Örnsköldsvik,63.29,18.72,41.79,1587241008,52,42.8,4.7,0
416,JP,Itoman,26.12,127.67,70.79,1587241027,94,71.6,4.7,75
417,HT,Gonaïves,19.45,-72.68,82.4,1587241027,65,82.4,13.87,20
418,US,Ramsey,45.03,-93.08,63.25,1587240872,34,64.99,14.99,90
419,BR,Carinhanha,-14.3,-43.77,74.39,1587241027,78,74.39,3.85,97
420,TZ,Mhango,-3.28,32.85,65.88,1587241027,68,65.88,4.23,100
421,CN,Shache,38.42,77.24,56.03,1587240964,37,56.03,10.04,99
422,US,Makakilo City,21.35,-158.09,75.16,1587240936,69,77.0,3.36,40
423,RU,Aksay,47.26,39.87,48.67,1587241028,36,48.99,4.47,100
424,SA,Makkah al Mukarramah,21.43,39.83,77.09,1587241028,44,77.09,3.04,100
425,RU,Baykit,61.67,96.37,18.95,1587241028,91,18.95,1.5,0
426,AU,Mount Isa,-20.73,139.5,71.6,1587241028,30,71.6,10.29,0
427,CZ,Miroslav,48.95,16.31,54.86,1587241028,65,54.86,2.55,100
428,US,Avera,33.19,-82.53,77.23,1587241028,29,78.8,13.87,1
429,ZM,Chililabombwe,-12.36,27.82,61.97,1587241028,66,61.97,5.84,24
430,RU,Zyryanka,65.75,150.85,-0.22,1587240682,92,-0.22,20.56,100
431,GL,Nuuk,64.18,-51.72,30.2,1587241029,58,30.2,24.16,100
432,BR,Barra do Bugres,-15.07,-57.18,79.63,1587241029,76,79.63,2.08,75
433,PF,Faanui,-16.48,-151.75,82.87,1587240662,73,82.87,9.57,26
434,PF,Vaitape,-16.52,-151.75,83.7,1587241029,73,83.7,9.42,23
435,ID,Kalianget,-7.05,113.93,80.69,1587241029,78,80.69,2.93,62
436,OM,Muscat,23.61,58.59,80.6,1587240840,78,80.6,4.7,71
437,NO,Skjervøy,70.03,20.97,39.94,1587240684,89,39.94,18.63,100
438,CN,Xining,36.62,101.77,42.62,1587241029,30,42.62,1.05,100
439,ZA,George,-33.96,22.46,62.6,1587240694,55,62.6,2.24,0
440,RU,Shirokiy,49.76,129.52,49.46,1587241030,43,49.46,11.18,100
441,AU,Nelson Bay,-32.72,152.15,50.36,1587241030,93,52.0,3.36,16
442,RU,Teeli,51.03,90.23,35.62,1587241030,47,35.62,2.19,0
443,FR,Arrondissement d'Arcachon,44.59,-1.05,59.58,1587241030,87,60.8,3.36,100
444,IN,Amarpur,25.03,86.9,79.66,1587241030,49,79.66,7.94,2
445,JP,Naze,28.37,129.48,64.4,1587240565,88,64.4,4.7,90
446,BD,Teknāf,20.86,92.31,74.55,1587241031,87,74.55,3.98,84
447,GN,Dinguiraye,11.3,-10.72,88.36,1587241031,22,88.36,4.59,92
448,BR,Olinda,-8.01,-34.86,86.0,1587240668,70,86.0,8.05,40
449,TD,Biltine,14.53,20.92,80.89,1587241031,13,80.89,9.08,0
450,JP,Wajima,37.4,136.9,50.63,1587241031,85,50.63,16.06,99
451,PT,Camacha,33.08,-16.33,62.6,1587240632,72,62.6,13.87,40
452,ID,Biak,-0.91,122.88,79.84,1587240685,77,79.84,2.73,14
453,MM,Sittwe,20.15,92.9,75.38,1587240696,87,75.38,3.69,15
454,DE,Rotenburg,53.12,9.4,50.25,1587241032,44,51.01,1.99,0
455,GB,Kinlochleven,56.71,-4.97,47.95,1587241032,58,50.0,5.01,0
456,GB,Margate,51.38,1.39,48.49,1587240634,90,48.99,12.28,15
457,PH,Siocon,7.71,122.14,81.82,1587241032,76,81.82,10.49,0
458,RU,Bayanday,53.07,105.51,26.96,1587241032,76,26.96,11.86,99
459,US,La Palma,33.85,-118.05,63.14,1587241032,55,64.99,6.93,90
460,FI,Jyvaskyla,62.24,25.72,37.2,1587241033,64,37.4,12.75,20
461,NO,Berlevåg,70.86,29.09,35.73,1587241033,83,35.73,15.43,95
462,US,South Venice,27.05,-82.42,81.48,1587241033,74,82.0,6.93,1
463,GL,Paamiut,61.99,-49.67,27.77,1587240650,94,27.77,23.58,100
464,IS,Grindavik,63.84,-22.43,35.62,1587240516,100,37.4,11.41,90
465,CN,Dinghaicun,26.28,119.79,64.4,1587241033,93,64.4,2.24,90
466,AU,Katherine,-14.47,132.27,71.6,1587241034,78,71.6,4.25,2
467,BB,Bathsheba,13.22,-59.52,86.0,1587240649,58,86.0,20.8,40
468,MV,Kudahuvadhoo,2.67,72.89,83.89,1587241034,79,83.89,13.62,56
469,ID,Tanete,-3.94,119.78,77.16,1587241034,87,77.16,2.75,97
470,PH,Dingle,11.0,122.67,78.66,1587240652,82,78.66,9.37,2
471,NO,Roald,62.58,6.13,41.22,1587240633,81,42.8,10.29,0
472,EG,Aswān,24.09,32.91,71.06,1587240692,23,71.06,8.25,6
473,ES,Bereda,43.27,-7.54,51.96,1587241034,99,55.0,4.0,87
474,AU,Esperance,-33.87,121.9,59.0,1587240629,100,59.0,12.75,75
475,KZ,Balkhash,46.84,74.98,53.83,1587241035,39,53.83,5.7,0
476,NO,Andenes,69.31,16.12,37.29,1587241035,86,39.2,13.87,95
477,NO,Mehamn,71.04,27.85,33.1,1587241035,91,33.1,7.87,28
478,AU,Geraldton,-28.77,114.6,65.79,1587240445,93,66.2,3.36,40
479,CA,Smithers,54.78,-127.17,57.2,1587240976,41,57.2,3.36,20
480,ZA,Richards Bay,-28.78,32.04,72.9,1587241035,77,72.9,8.1,33
481,TD,Ati,13.22,18.34,85.91,1587241035,10,85.91,10.58,1
482,ZM,Kasempa,-13.46,25.83,62.89,1587241035,65,62.89,5.64,43
483,ID,Sumenep,-7.02,113.87,80.19,1587241036,79,80.19,2.8,63
484,RU,Berdigestyakh,62.1,126.7,5.22,1587241036,92,5.22,2.98,96
485,ID,Poso,-1.4,120.75,78.51,1587241036,67,78.51,2.53,91
486,LK,Matara,5.95,80.54,78.55,1587240914,87,78.55,4.12,7
487,MX,General Cepeda,25.38,-101.45,86.0,1587241036,37,86.0,5.82,75
488,CA,Pangnirtung,66.15,-65.71,5.0,1587241036,77,5.0,6.93,20
489,GH,Anloga,5.79,0.9,84.2,1587240935,83,84.2,14.99,20
490,GB,Horsham,51.06,-0.33,49.32,1587241036,87,51.01,6.93,40
491,RU,Mezen',65.85,44.24,30.31,1587241037,98,30.31,4.72,92
492,JP,Tateyama,34.98,139.87,57.49,1587241037,99,57.99,1.99,0
493,BR,Sidrolândia,-20.93,-54.96,86.0,1587241037,35,86.0,2.24,0
494,CL,Coyhaique,-45.58,-72.07,49.33,1587240889,81,50.0,8.05,90
495,PE,Pangoa,-12.12,-73.0,82.11,1587241037,41,82.11,3.8,1
496,US,Lompoc,34.64,-120.46,61.14,1587240600,59,62.6,9.17,75
497,AU,Swan Hill,-35.34,143.55,50.02,1587241037,64,50.02,2.55,46
498,RU,Preobrazheniye,42.9,133.91,40.6,1587241038,67,40.6,6.15,3
499,GW,Bubaque,11.28,-15.83,79.66,1587241038,70,79.66,20.27,100
500,ID,Pangkalanbuun,-2.68,111.62,76.35,1587241038,92,76.35,3.94,98
501,US,Lawrenceburg,38.04,-84.9,56.28,1587241038,43,57.99,5.82,1
502,LK,Wattegama,6.8,81.48,76.1,1587240665,86,76.1,1.45,99
503,US,Grand Island,40.92,-98.34,70.83,1587241030,23,73.4,16.11,1
504,US,Pacific Grove,36.62,-121.92,60.1,1587241038,55,61.0,11.41,90
505,BY,Forsytheganj,52.63,29.73,37.0,1587241038,75,37.0,6.73,72
506,CN,Wanning,18.8,110.4,75.45,1587240753,90,75.45,8.84,1
507,JP,Kurayoshi,35.43,133.82,53.6,1587241039,81,53.6,5.82,75
508,RU,Knyaze-Volkonskoye,48.46,135.46,33.8,1587241039,80,33.8,8.95,0
509,US,Hamilton,39.18,-84.53,53.87,1587240399,47,55.99,6.93,75
510,BJ,Benin,9.5,2.25,84.27,1587241039,57,84.27,9.69,100
511,AU,Ballina,-28.87,153.57,60.89,1587241039,100,61.0,4.7,11
512,RU,Aldan,58.6,125.39,2.21,1587241039,86,2.21,2.95,91
513,SV,Acajutla,13.59,-89.83,90.07,1587241040,36,93.2,2.24,20
514,IN,Tālbahat,25.05,78.43,86.11,1587241040,26,86.11,7.63,67
515,US,Oneonta,42.45,-75.06,38.66,1587241040,70,41.0,1.99,63
516,NZ,Te Anau,-45.42,167.72,46.09,1587241040,73,46.09,6.96,100
517,DO,Santo Domingo,18.5,-69.99,84.61,1587241040,88,84.99,8.68,21
518,RU,Aykhal,66.0,111.5,8.6,1587241040,50,8.6,4.47,1
519,CN,Linxia Chengguanzhen,35.6,103.21,46.76,1587241040,30,46.76,1.48,99
520,AR,Rawson,-43.3,-65.1,69.08,1587241041,63,69.08,17.13,76
521,SD,Kutum,14.2,24.67,70.56,1587240627,14,70.56,9.55,7
522,IS,Vestmannaeyjar,63.44,-20.27,44.6,1587240631,100,44.6,12.75,90
523,RU,Arman',59.7,150.17,8.31,1587241041,83,8.31,15.43,100
524,KZ,Stepnyak,52.83,70.78,49.37,1587241041,59,49.37,5.77,100
525,FO,Vestmanna,62.16,-7.17,42.8,1587241041,81,42.8,13.87,0
526,BR,Guaramirim,-26.47,-49.0,65.37,1587241041,70,73.99,2.28,23
527,BR,Tamandaré,-8.76,-35.1,82.02,1587240702,77,82.02,8.75,88
528,RU,Ust-Maya,60.42,134.53,9.37,1587241042,92,9.37,2.44,98
529,MW,Nsanje,-16.92,35.26,71.51,1587241042,91,71.51,3.85,17
530,NC,Poum,-20.23,164.02,78.22,1587240647,77,78.22,14.2,74
531,ES,Salamanca,40.83,-6.0,52.92,1587241042,81,54.0,5.82,96
532,UY,Salto,-31.38,-57.97,80.82,1587240932,44,81.0,11.41,0
533,IN,Dharampur,20.53,73.18,81.61,1587241042,51,81.61,1.66,20
534,CN,Zhangzhou,24.51,117.66,73.4,1587241042,88,73.4,4.47,90
535,CN,Yinchuan,38.47,106.27,48.0,1587240670,45,48.0,3.0,0
536,CO,Inírida,3.87,-67.92,77.76,1587241043,92,77.76,2.15,100
537,NZ,Tuatapere,-46.13,167.68,43.0,1587240511,91,43.0,5.01,54
538,CU,Nuevitas,21.55,-77.26,84.31,1587241043,60,84.31,13.94,0
539,US,Houma,29.6,-90.72,73.45,1587240886,94,73.99,8.05,90
540,BS,Marsh Harbour,26.54,-77.06,80.74,1587240934,75,80.74,12.82,44
541,NE,Bilma,18.69,12.92,83.82,1587241043,12,83.82,5.03,0
542,TZ,Sokoni,-6.43,39.55,75.2,1587241043,94,75.2,11.41,75
543,GF,Mana,5.66,-53.78,81.0,1587241043,82,81.0,8.86,69
544,RU,Yazykovo,55.22,56.14,36.16,1587241043,79,36.16,6.82,98
545,ID,Sigli,5.38,95.96,79.83,1587241044,77,79.83,4.12,41
546,ID,Loa Janan,-0.58,117.09,75.88,1587241044,94,75.88,1.57,100
547,OM,Salalah,17.02,54.09,82.4,1587240665,74,82.4,6.93,40
548,PH,Gigmoto,13.78,124.39,81.72,1587241044,78,81.72,12.86,84
549,NO,Olden,61.84,6.81,31.44,1587241044,87,33.01,2.66,4
550,US,Salinas,36.68,-121.66,59.56,1587240423,67,61.0,5.41,90
551,PT,Lata,40.16,-8.33,59.5,1587240690,80,60.01,1.99,29
552,IN,Arantāngi,10.17,78.98,84.49,1587241045,71,84.49,6.04,38
553,SE,Härnösand,62.63,17.94,42.73,1587240669,65,45.0,9.17,0
554,SS,Malakal,9.53,31.66,88.5,1587240676,10,88.5,2.57,84
555,RU,Shilovo,54.32,40.87,35.01,1587241045,78,35.01,1.99,94
556,RU,Novoagansk,61.94,76.66,50.7,1587241045,83,50.7,18.41,100
557,IN,Pāsighāt,28.07,95.33,68.13,1587241045,76,68.13,2.06,80
558,KM,Mitsamiouli,-11.38,43.28,82.98,1587241045,78,82.98,12.33,87
559,CN,Baijiantan,45.63,85.18,60.39,1587241045,40,60.39,7.23,21
560,IN,Talwāra,31.95,75.87,69.84,1587241046,55,69.84,5.5,5
561,RU,Mikun',62.35,50.08,34.11,1587241046,94,34.11,3.44,100
562,BR,Carutapera,-1.2,-46.02,80.11,1587240879,82,80.11,5.26,83
563,RU,Naryan-Mar,67.67,53.09,30.85,1587241046,98,30.85,4.9,100
564,GL,Tasiilaq,65.61,-37.64,32.0,1587240548,95,32.0,17.22,100
565,RU,Vostok,46.49,135.88,36.91,1587240600,71,36.91,3.8,41
566,GF,Cayenne,4.93,-52.33,84.2,1587240681,70,84.2,11.41,40
567,CN,Guozhen,34.37,107.36,48.18,1587241046,60,48.18,0.67,57
568,MG,Ampanihy,-24.7,44.75,70.83,1587241025,73,70.83,7.05,11
569,NZ,Whitianga,-36.83,175.7,64.0,1587241047,97,64.0,1.01,42
570,US,Mastic Beach,40.77,-72.85,41.5,1587241047,75,42.8,11.41,90
571,ES,Agüimes,27.91,-15.45,64.4,1587241047,63,64.4,17.22,20
572,PG,Namatanai,-3.67,152.43,81.72,1587240691,77,81.72,4.21,95
573,ES,Mahon,39.89,4.27,62.6,1587241047,93,62.6,9.17,100
574,GH,Takoradze,4.88,-1.76,81.82,1587241047,82,81.82,8.97,67
575,RU,Zheleznodorozhnyy,55.75,38.0,36.52,1587241047,85,37.4,6.71,76
576,CN,Shenjiamen,29.96,122.3,59.49,1587241047,95,59.49,16.87,100
577,RU,Khandyga,62.67,135.6,-1.95,1587240664,87,-1.95,3.89,14
578,MX,Sain Alto,23.58,-103.25,83.1,1587240988,11,83.1,21.52,5
579,KR,Gijang,35.24,129.21,51.8,1587240683,81,51.8,6.93,75
580,PR,Vieques,18.43,-65.83,79.68,1587241048,74,82.4,19.46,40
581,BR,Itaituba,-4.28,-55.98,89.6,1587240890,59,89.6,1.63,40
582,IE,Skibbereen,51.55,-9.27,46.4,1587240671,100,46.4,13.87,90
